{
	"List":[
		{
		"Title":"User A",
		"User":0,
		"SetPosition":"true",
		"Position":[0.866,-0.008,-0.564],
		"Rotation":[-74.746,54.565,0],
        "Scale":[0.8,0.8,0.8],	
		"Type":"USERPANEL",
		"List":[{
				"Name":"Print Materials",
				"Description":"Before your first meeting you need to print some documents ",
				"Options":[{
					"Name":"Menu Printing",
					"Description":"printing shop",
					"Lng":-73.9967794,
					"Lat":40.7210974,
					"Type":0
					},{
					"Name":"iDesign Digital Printing",
					"Description":"printing shop",
					"Lng":-73.9995236,
					"Lat":40.7205979,
					"Type":0
					},{
					"Name":"Staples Print & Marketing Services",
					"Description":"printing shop",
					"Lng":-74.010884,
					"Lat":40.7115781,
					"Type":0
					},{
					"Name":"Big Apple Copy Center",
					"Description":"printing shop",
					"Lng":-74.0129046,
					"Lat":40.7092186,
					"Type":0
				}],
				"TimeLocked":"false",
				"Time":"",
				"Duration":""
				},
				{
				"Name":"Second Task",
				"Description":"Second Task Description",
				"Options":[],
				"TimeLocked":"false",
				"Time":"",
				"Duration":""
				},
				{
				"Name":"Third Task",
				"Description":"Third Task Description",
				"Options":[],
				"TimeLocked":"false",
				"Time":"",
				"Duration":""
				}]
		},{
		"Title":"User B",
		"User":1,
		"SetPosition":"true",
		"Position":[-0.58,0.021,0.879],
		"Rotation":[-74.746,54.565,-34.417],
        "Scale":[0.8,0.8,0.8],	
		"Type":0,
		"List":[
				{
				"Name":"Buy power plug adaptor ",
				"Description":"Before your first meeting you need to buy a power plug adaptor as you forgot yours at home",
				"Options":[{
					"Name":"Advanced Computer Systems",
					"Description":"Electronic store",
					"Lng":-74.012969,
					"Lat":40.7065021,
					"Type":3
					},{
					"Name":"xCubicle",
					"Description":"Electronic store",
					"Lng":-74.0098899,
					"Lat":40.7063679,
					"Type":3
					},{
					"Name":"Microtech Computer Systems Inc",
					"Description":"Electronic store",
					"Lng":-74.0105765,
					"Lat":40.706193,
					"Type":3
					},{
					"Name":"Ciamara",
					"Description":"Electronic store",
					"Lng":-74.0083626,
					"Lat":40.705802,
					"Type":3
					}],
				"TimeLocked":"false",
				"Time":"",
				"Duration":""
				},
				{
				"Name":"Meeting with Vserve",
				"Description":"you agree to present your secure payment framework to this agency make sure you will be on time",
				"Options":[{
					"Name":"Vserve Ebusiness Solutions",
					"Description":"Electronic store",
					"Lng":-74.0074186,
					"Lat":40.704794,
					"Type":4
				}],
				"TimeLocked":"false",
				"Time":"",
				"Duration":""
				},
				{
				"Name":"Third Task",
				"Description":"Third Task Description",
				"Options":[],
				"TimeLocked":"false",
				"Time":"",
				"Duration":""
				}]	
		},{
		"Title":"Task Construction",
		"SetPosition":"true",
		"Position":[0.003,0.201,0.065],
		"Rotation":[-49.245,45.329,-0.459],
        "Scale":[0.8,0.8,0.8],	
		"Type":1
		}]

}